{
    "data":[
        {"id": 1,"lng":106.67103	, "lat": 26.620584	,"name":"贵阳市运管局"},
        {"id": 2,"lng":106.694092	, "lat": 26.564367	,"name":"稽查一大队"},
        {"id": 3,"lng":106.700539	, "lat": 26.58559	,"name":"稽查二大队"},
        {"id": 4,"lng":106.703953	, "lat": 26.515753	,"name":"稽查三大队"},
        {"id": 5,"lng":106.58059	, "lat": 26.594735	,"name":"稽查四大队"},
        {"id": 6,"lng":106.736615	, "lat": 26.399805	,"name":"花溪区车管所"},
        {"id": 7,"lng":106.679518	, "lat": 26.528471	,"name":"南明区车管所"},
        {"id": 8,"lng":106.662498	, "lat": 26.580877	,"name":"云岩区车管所"},
        {"id": 9,"lng":106.578295	, "lat": 26.598972	,"name":"观山湖区车管所"},
        {"id": 10,"lng":106.623576	, "lat": 26.680025	,"name":"白云区车管所"},
        {"id": 11,"lng":106.750625	, "lat": 26.630845	,"name":"乌当区车管所"},
        {"id": 12,"lng":106.487923	, "lat": 26.555406	,"name":"清镇市车管所"},
        {"id": 13,"lng":106.59566	, "lat": 26.83263	,"name":"修文县车管所"},
        {"id": 14,"lng":106.859843	, "lat": 27.052735	,"name":"开阳县车管所"},
        {"id": 15,"lng":106.747412	, "lat": 27.076348	,"name":"息烽县车管所"}
    ],
    "type":"law_unit"
}